[
    {
        "company": "Bobs Tyre Centre Hervey Bay",
        "street": "93 Main St",
        "suburb": "Pialba",
        "state": "QLD",
        "postcode": "4655",
        "phone": "07 4124 1855",
        "latitude": -25.28868,
        "longitude": 125.83754
    },
    {
        "company": "Bobs Tyre Centre Maryborough",
        "street": "14 Rocky St",
        "suburb": "Maryborough",
        "state": "QLD",
        "postcode": "4650",
        "phone": "07 4121 228",
        "latitude": -25.53114,
        "longitude": 152.68898
    },
    {
        "company": "4WD Obsession",
        "street": "14 Venture Drive",
        "suburb": "Noosaville",
        "state": "QLD",
        "postcode": "4566",
        "phone": "07 5474 1977",
        "latitude": -26.40762,
        "longitude": 153.04427
    },
    {
        "company": "Adventure Offroad",
        "street": "3343 Pacific Hwy",
        "suburb": "Slacks Creek",
        "state": "QLD",
        "postcode": "4127",
        "phone": "07 3133 1443",
        "latitude": -27.61693,
        "longitude": 153.12389
    },
    {
        "company": "Tyrant 4x4",
        "street": "3B/6 Boundary Rd",
        "suburb": "Northmead",
        "state": "NSW",
        "postcode": "2152",
        "phone": "1800 860 680",
        "latitude": -33.79442,
        "longitude": 150.99795
    },
    {
        "company": "Adrenalin Offrad Centre",
        "street": "Unit 1, 13 Exchange Parade",
        "suburb": "Narellan",
        "state": "NSW",
        "postcode": "2567",
        "phone": "02 4648 2085",
        "latitude": -34.04018,
        "longitude": 150.74836
    },
    {
        "company": "Riverina 4WD & Offroad",
        "street": "1A Dobney Ave",
        "suburb": "Wagga Wagga",
        "state": "NSW",
        "postcode": "2650",
        "phone": "02 6925 4770",
        "latitude": -35.11655,
        "longitude": 147.34886
    },
    {
        "company": "Altapac Maitland",
        "street": "3/175 High Street",
        "suburb": "Maitland",
        "state": "NSW",
        "postcode": "2320",
        "phone": "02 4941 4444",
        "latitude": -32.74113,
        "longitude": 151.56362
    },
    {
        "company": "Altapac",
        "street": "94 Park Ave",
        "suburb": "Kotara",
        "state": "NSW",
        "postcode": "2289",
        "phone": "02 4941 4444",
        "latitude": -32.94044,
        "longitude": 151.70924
    },
    {
        "company": "Sydney Ute Accessories",
        "street": "6/64 Oak Rd",
        "suburb": "Kirrawee",
        "state": "NSW",
        "postcode": "2232",
        "phone": "02 9542 5608",
        "latitude": -34.02623,
        "longitude": 151.07338
    },
    {
        "company": "Solar Shade/All Barred up",
        "street": "1/48 Shandan Cct",
        "suburb": "Albion Park Rail",
        "state": "NSW",
        "postcode": "2527",
        "phone": "02 4256 4806",
        "latitude": -34.57343,
        "longitude": 150.81442
    },
    {
        "company": "Van & Ute Extras Blacktown",
        "street": "1/12 Garling Rd",
        "suburb": "Kings Park",
        "state": "NSW",
        "postcode": "2148",
        "phone": "02 9671 2330",
        "latitude": -33.74509,
        "longitude": 150.91163
    },
    {
        "company": "Oz Canopies & 4x4",
        "street": "126 Hamilton St",
        "suburb": "Riverstone",
        "state": "NSW",
        "postcode": "2765",
        "phone": "02 9627 8666",
        "latitude": -33.66588,
        "longitude": 150.86362
    },
    {
        "company": "Trailbait Offroad",
        "street": "212 Barney St",
        "suburb": "Armidale",
        "state": "NSW",
        "postcode": "2350",
        "phone": "1300 770 966",
        "latitude": -30.53552,
        "longitude": 151.61555
    },
    {
        "company": "Action 4x4 Canberra",
        "street": "96 Maryborough St",
        "suburb": "Fyshwick",
        "state": "ACT",
        "postcode": "2609",
        "phone": "02 6109 5048",
        "latitude": -35.32353,
        "longitude": 149.17545
    },
    {
        "company": "Opposite Lock/Autobarn Sunbury",
        "street": "106-108 Horne St",
        "suburb": "Sunbury",
        "state": "VIC",
        "postcode": "3429",
        "phone": "03 9740 8999",
        "latitude": -37.5853,
        "longitude": 144.72115
    },
    {
        "company": "Barossa Offroad",
        "street": "3/27 Theen Ave",
        "suburb": "Willaston",
        "state": "SA",
        "postcode": "5118",
        "phone": "08 8522 1141",
        "latitude": -34.59278,
        "longitude": 138.73195
    },
    {
        "company": "Opposite Lock Rockhampton",
        "street": "178 Denison St",
        "suburb": "Rockhampton City",
        "state": "QLD",
        "postcode": "4700",
        "phone": "07 4921 4940",
        "latitude": -23.38006,
        "longitude": 150.50964
    },
    {
        "company": "Autokit - Opposite Lock Bundaberg",
        "street": "106 Enterprise St",
        "suburb": "Svensson Heights",
        "state": "QLD",
        "postcode": "4670",
        "phone": "07 4151 6211",
        "latitude": -24.89168,
        "longitude": 152.33457
    },
    {
        "company": "TJM Lismore",
        "street": "10 Thee Chain Rd",
        "suburb": "South Lismore",
        "state": "NSW",
        "postcode": "2480",
        "phone": "02 6621 7000",
        "latitude": -28.82118,
        "longitude": 153.26247
    },
    {
        "company": "TJM Ballina",
        "street": "6 Southern Cross Drive",
        "suburb": "Ballina",
        "state": "NSW",
        "postcode": "2478",
        "phone": "02 6681 5300",
        "latitude": -28.85155,
        "longitude": 153.55646
    },
    {
        "company": "Central Coast 4x4 & Outdoor",
        "street": "12 Central Coast Hwy",
        "suburb": "West Gosford",
        "state": "NSW",
        "postcode": "2250",
        "phone": "02 4346 5060",
        "latitude": -33.42755,
        "longitude": 151.32679
    },
    {
        "company": "AMA Group Gemini Pinkenba",
        "street": "48 Randle Rd",
        "suburb": "Pinkenba",
        "state": "QLD",
        "postcode": "4008",
        "phone": "07 3557 5594",
        "latitude": -27.42761,
        "longitude": 153.1086
    },
    {
        "company": "AMA Group Gemini Wangara",
        "street": "87 Innovation Circuit",
        "suburb": "Wangara",
        "state": "WA",
        "postcode": "6065",
        "phone": "08 9302 1805",
        "latitude": -31.79918,
        "longitude": 115.83191
    },
    {
        "company": "AMA Group Mackay",
        "street": "13-15 Corporate Dr",
        "suburb": "Paget",
        "state": "QLD",
        "postcode": "4740",
        "phone": "07 4952 3244",
        "latitude": -21.18459,
        "longitude": 149.15547
    },
    {
        "company": "AMA Group Townsville",
        "street": "9 Vesuvius St",
        "suburb": "Garbutt",
        "state": "QLD",
        "postcode": "4814",
        "phone": "07 4779 9422",
        "latitude": -19.27308,
        "longitude": 146.76805
    },
    {
        "company": "EGR Fitment Centre Salisbury",
        "street": "4 Standish St",
        "suburb": "Salisbury",
        "state": "QLD",
        "postcode": "4107",
        "phone": "1300 320 338",
        "latitude": -27.54323,
        "longitude": 153.02627
    },
    {
        "company": "Opposite Lock Epping",
        "street": "1/26-38 Miller St",
        "suburb": "Epping",
        "state": "VIC",
        "postcode": "3076",
        "phone": "03 9408 7077",
        "latitude": -37.64821,
        "longitude": 145.02013
    },
    {
        "company": "Opposite Lock Mornington",
        "street": "841 Nepean Hwy",
        "suburb": "Mornington",
        "state": "VIC",
        "postcode": "3931",
        "phone": "03 5976 7308",
        "latitude": -38.23314,
        "longitude": 145.03954
    },
    {
        "company": "Opposite Lock Wodonga",
        "street": "87 Thomas Mitchell Dr",
        "suburb": "Wodonga",
        "state": "VIC",
        "postcode": "3690",
        "phone": "03 6056 4414",
        "latitude": -36.13442,
        "longitude": 146.90329
    },
    {
        "company": "Australian Ute Gear",
        "street": "4/437 Old Geelong Rd",
        "suburb": "Hoppers Crossing",
        "state": "VIC",
        "postcode": "3029",
        "phone": "03 8360 8222",
        "latitude": -37.86821,
        "longitude": 146.90329
    },
    {
        "company": "TJM Shepparton",
        "street": "8005 Melbourne Rd",
        "suburb": "Shepparton",
        "state": "VIC",
        "postcode": "3630",
        "phone": "03 5823 5285",
        "latitude": -36.40993,
        "longitude": 145.39239
    },
    {
        "company": "TJM Geelong",
        "street": "27 Baldwin Ave",
        "suburb": "Geelong",
        "state": "VIC",
        "postcode": "3215",
        "phone": "03 5277 1444",
        "latitude": -38.0994,
        "longitude": 144.35375
    },
    {
        "company": "Peel 4WD Centre",
        "street": "292 Pinjarra Rd",
        "suburb": "Mandurah",
        "state": "WA",
        "postcode": "6210",
        "phone": "08 9581 6184",
        "latitude": -32.53567,
        "longitude": 115.73636
    },
    {
        "company": "Power Tune 4x4",
        "street": "450 Warwick Rd",
        "suburb": "Yamanto",
        "state": "QLD",
        "postcode": "4305",
        "phone": "07 3281 1050",
        "latitude": -27.65816,
        "longitude": 152.74489
    },
    {
        "company": "Tropical Accessories Mackay",
        "street": "2 McLennan St",
        "suburb": "Ooralea",
        "state": "QLD",
        "postcode": "4740",
        "phone": "07 4952 4122",
        "latitude": -21.16534,
        "longitude": 149.15358
    }
]